,City,Lat,Lng,Max Temp,Humidity,Cloudiness,Wind Speed,Country,Date
0,monywa,22.1167,95.1333,71.17,64,2,6.53,MM,1669838284
1,kargil,34.5667,76.1,25.36,41,100,2.64,IN,1669838285
2,albany,42.6001,-73.9662,52.95,91,100,5.99,US,1669838286
3,boli,45.7667,130.5167,-0.38,76,98,14.07,CN,1669838286
4,mount pleasant,32.7941,-79.8626,69.1,83,0,9.22,US,1669838082
5,ushuaia,-54.8,-68.3,53.26,50,75,27.63,AR,1669838287
6,puerto ayora,-0.7393,-90.3518,78.76,85,69,5.99,EC,1669838287
7,soyo,-6.1349,12.3689,77.77,80,79,6.42,AO,1669838287
8,qaanaaq,77.484,-69.3632,-21.96,78,16,5.59,GL,1669838288
9,terrasini,38.146,13.0844,56.77,79,20,12.66,IT,1669838288
10,bathsheba,13.2167,-59.5167,81.21,69,75,19.57,BB,1669838289
11,severnoye,56.3491,78.3619,-11.72,98,17,3.11,RU,1669838289
12,port hedland,-20.3167,118.5667,78.85,89,62,4.61,AU,1669838288
13,rikitea,-23.1203,-134.9692,72.48,72,94,13.29,PF,1669838290
14,busselton,-33.65,115.3333,62.01,82,99,8.9,AU,1669838244
15,longyearbyen,78.2186,15.6401,35.44,87,100,12.66,SJ,1669838291
16,rabaul,-4.1967,152.1721,79.84,77,56,4.45,PG,1669838291
17,gannan,47.9147,123.5031,-10.93,80,60,7.94,CN,1669838291
18,dingle,10.9995,122.6711,75.42,93,98,7.45,PH,1669838292
19,constitucion,-35.3333,-72.4167,62.2,65,0,19.24,CL,1669838292
20,navoi,40.0844,65.3792,35.92,75,98,4.85,UZ,1669838293
21,cayenne,4.9333,-52.3333,80.64,78,20,9.22,GF,1669838293
22,tiksi,71.6872,128.8694,-12.08,100,100,13.42,RU,1669838294
23,victoria,22.2855,114.1577,64.26,81,100,15.99,HK,1669838007
24,upernavik,72.7868,-56.1549,7.92,89,100,16.37,GL,1669838295
25,mataura,-46.1927,168.8643,50.49,59,86,4.9,NZ,1669838295
26,carnarvon,-24.8667,113.6333,68.94,82,3,16.4,AU,1669838295
27,saskylakh,71.9167,114.0833,-30.17,100,100,7.0,RU,1669838296
28,pisco,-13.7,-76.2167,75.25,60,0,13.8,PE,1669838296
29,kaitangata,-46.2817,169.8464,53.02,57,11,8.79,NZ,1669838297
30,norman wells,65.282,-126.8329,-14.76,76,100,2.3,CA,1669838297
31,mahebourg,-20.4081,57.7,76.24,78,40,4.61,MU,1669838297
32,castro,-24.7911,-50.0119,69.4,83,81,2.42,BR,1669838298
33,hobart,-42.8794,147.3294,53.26,73,75,1.99,AU,1669838234
34,iseyin,7.9667,3.6,81.23,48,41,5.14,NG,1669838299
35,omsukchan,62.5333,155.8,0.72,98,100,6.55,RU,1669838231
36,sao joao da barra,-21.6403,-41.0511,77.09,90,100,14.16,BR,1669838299
37,puerto escondido,15.85,-97.0667,83.98,66,19,7.18,MX,1669838275
38,rubio,7.7013,-72.3557,70.65,73,58,5.3,VE,1669838300
39,christchurch,-43.5333,172.6333,55.94,71,100,6.91,NZ,1669838099
40,vaini,-21.2,-175.2,80.76,78,75,4.61,TO,1669838300
41,port hardy,50.6996,-127.4199,28.58,93,75,3.44,CA,1669838301
42,kaliua,-5.0606,31.7936,64.63,95,76,4.76,TZ,1669838301
43,east london,-33.0153,27.9116,72.64,88,100,13.24,ZA,1669838232
44,punta arenas,-53.15,-70.9167,55.42,50,75,31.07,CL,1669838303
45,kjollefjord,70.9457,27.3465,35.65,93,75,6.91,NO,1669838303
46,shache,38.4167,77.2406,20.1,21,1,0.45,CN,1669838304
47,hermanus,-34.4187,19.2345,60.8,88,48,1.36,ZA,1669838229
48,saint anthony,45.0205,-93.218,19.89,66,75,25.32,US,1669838304
49,port alfred,-33.5906,26.891,66.18,94,100,8.93,ZA,1669838306
50,carutapera,-1.195,-46.02,79.47,75,100,6.46,BR,1669838306
51,leningradskiy,69.3833,178.4167,1.29,97,91,4.32,RU,1669838307
52,barrow,71.2906,-156.7887,28.42,93,100,17.27,US,1669838307
53,geraldton,-28.7667,114.6,68.41,68,100,6.91,AU,1669838307
54,vanimo,-2.6741,141.3028,77.45,88,100,5.23,PG,1669838308
55,jamestown,42.097,-79.2353,35.24,70,100,30.0,US,1669837858
56,muros,42.7762,-9.0603,53.1,90,99,6.71,ES,1669838310
57,atuona,-9.8,-139.0333,77.86,75,55,16.93,PF,1669838313
58,georgetown,5.4112,100.3354,81.23,92,20,3.44,MY,1669838063
59,sola,-13.8833,167.55,81.93,75,52,13.6,VU,1669838316
60,leh,34.1667,77.5833,20.26,55,88,0.67,IN,1669838318
61,aswan,24.0934,32.907,70.9,30,0,4.61,EG,1669838318
62,mecca,21.4267,39.8261,79.14,68,51,2.86,SA,1669838319
63,west fargo,46.875,-96.9004,12.25,67,100,17.27,US,1669838319
64,gornopravdinsk,60.05,69.9,-9.53,95,90,3.71,RU,1669838320
65,cape town,-33.9258,18.4232,68.41,74,0,10.36,ZA,1669838199
66,salinas,36.6777,-121.6555,60.01,58,39,4.59,US,1669838206
67,povenets,62.8487,34.8262,20.3,93,100,4.81,RU,1669838067
68,shelburne,44.0787,-80.2041,32.45,80,97,23.09,CA,1669838239
69,barentu,15.1139,37.5928,76.35,36,0,5.79,ER,1669838321
70,bluff,-46.6,168.3333,50.81,78,96,15.3,NZ,1669838322
71,avarua,-21.2078,-159.775,80.65,78,75,17.27,CK,1669838322
72,hanzhong,33.0728,107.0303,23.95,91,72,0.94,CN,1669838323
73,matagami,49.7502,-77.6328,33.91,93,100,14.97,CA,1669838323
74,arraial do cabo,-22.9661,-42.0278,75.16,94,100,19.57,BR,1669838324
75,thompson,55.7435,-97.8558,-11.04,58,20,11.5,CA,1669838324
76,saldanha,-33.0117,17.9442,64.45,91,0,10.09,ZA,1669838325
77,provideniya,64.3833,-173.3,33.91,69,20,6.71,RU,1669838325
78,constantine,36.365,6.6147,46.94,81,77,3.96,DZ,1669838027
79,bandarbeyla,9.4942,50.8122,78.06,82,11,15.32,SO,1669838326
80,kousseri,12.0769,15.0306,73.36,38,49,4.61,CM,1669838327
81,ust-maya,60.4167,134.5333,-26.25,99,100,0.85,RU,1669838327
82,fukue,32.6881,128.8419,48.51,66,100,22.48,JP,1669838327
83,yellowknife,62.456,-114.3525,-17.45,76,20,4.61,CA,1669838328
84,tuktoyaktuk,69.4541,-133.0374,-0.4,85,100,8.05,CA,1669838328
85,moussoro,13.6408,16.4901,77.36,13,6,9.51,TD,1669838328
86,marsaxlokk,35.8419,14.5431,57.07,82,20,8.05,MT,1669838328
87,karratha,-20.7377,116.8463,81.21,56,97,9.01,AU,1669838329
88,tsogni,-2.7942,10.0988,75.83,86,69,4.88,GA,1669838329
89,tonantins,-2.8731,-67.8022,91.09,53,92,3.71,BR,1669838330
90,coquimbo,-29.9533,-71.3436,69.53,60,75,11.5,CL,1669838331
91,new norfolk,-42.7826,147.0587,52.92,56,6,3.0,AU,1669838331
92,bilibino,68.0546,166.4372,8.04,94,100,3.71,RU,1669838332
93,kargat,55.1956,80.2811,-8.25,95,20,4.63,RU,1669838332
94,solnechnyy,50.7214,136.6319,-9.09,96,62,3.44,RU,1669838332
95,los llanos de aridane,28.6585,-17.9182,65.95,72,75,10.36,ES,1669838333
96,abu dhabi,24.4667,54.3667,78.82,84,100,3.44,AE,1669838276
97,butaritari,3.0707,172.7902,81.1,77,18,13.18,KI,1669838333
98,port elizabeth,-33.918,25.5701,68.09,85,0,13.8,ZA,1669838334
99,bubaque,11.2833,-15.8333,81.84,66,25,11.72,GW,1669838334
100,chokurdakh,70.6333,147.9167,-1.93,96,100,9.4,RU,1669838325
101,katsuura,35.1333,140.3,55.29,84,100,18.66,JP,1669838335
102,miaray,7.5747,125.0444,70.47,94,100,3.24,PH,1669838336
103,lompoc,34.6391,-120.4579,63.84,75,85,5.01,US,1669838336
104,nouadhibou,20.931,-17.0347,65.66,76,0,17.47,MR,1669838337
105,santiago de cao,-7.9589,-79.2392,73.53,73,20,9.22,PE,1669838337
106,santa vitoria do palmar,-33.5189,-53.3681,75.88,72,6,17.18,BR,1669838338
107,cherskiy,68.75,161.3,-1.52,92,100,3.42,RU,1669838338
108,ulaanbaatar,47.9077,106.8832,-23.67,69,0,2.24,MN,1669838339
109,isla vista,34.4133,-119.861,65.82,66,59,5.01,US,1669838273
110,cumana,10.4635,-64.1775,80.49,73,13,14.5,VE,1669838340
111,myre,69.1036,15.9492,38.34,78,99,5.01,NO,1669838340
112,dudinka,69.4058,86.1778,1.4,99,99,6.49,RU,1669838341
113,kodiak,57.79,-152.4072,28.51,55,100,3.47,US,1669838341
114,gilgit,35.9221,74.3087,39.83,39,86,2.93,PK,1669838342
115,tilichiki,60.4667,166.1,30.45,95,100,38.03,RU,1669838342
116,bethel,41.3712,-73.414,56.89,86,100,3.0,US,1669838106
117,caravelas,-17.7125,-39.2481,79.65,85,100,5.35,BR,1669838343
118,yulara,-25.2406,130.9889,67.87,25,0,8.32,AU,1669838194
119,hamilton,39.1834,-84.5333,40.89,52,0,8.01,US,1669838343
120,krasnoselkup,65.7,82.4667,-1.3,97,100,9.35,RU,1669838344
121,marawi,7.9986,124.2928,66.92,95,24,1.39,PH,1669838344
122,mount gambier,-37.8333,140.7667,52.59,96,57,3.96,AU,1669838345
123,kapaa,22.0752,-159.319,82.09,81,99,1.01,US,1669838345
124,shimoda,34.6667,138.95,54.1,86,100,9.46,JP,1669838346
125,bengkulu,-3.8004,102.2655,74.52,88,100,3.76,ID,1669838346
126,bredasdorp,-34.5322,20.0403,64.06,79,59,2.75,ZA,1669838347
127,beringovskiy,63.05,179.3167,24.94,97,100,7.7,RU,1669838347
128,alta floresta,-9.8756,-56.0861,91.22,55,40,9.22,BR,1669838347
129,codrington,-38.2667,141.9667,55.67,92,76,2.42,AU,1669838348
130,jardim,-21.4803,-56.1381,97.63,23,27,10.11,BR,1669838348
131,santa cruz de la palma,28.6835,-17.7642,69.94,56,75,10.36,ES,1669838059
132,hualmay,-11.0964,-77.6139,71.44,73,85,11.18,PE,1669838297
133,iqaluit,63.7506,-68.5145,-20.31,68,20,12.66,CA,1669838349
134,estelle,29.8458,-90.1067,70.0,46,9,13.0,US,1669838226
135,naze,28.3667,129.4833,58.12,79,100,19.53,JP,1669838350
136,khatanga,71.9667,102.5,-39.46,100,55,5.39,RU,1669838351
137,cidreira,-30.1811,-50.2056,71.73,90,98,16.73,BR,1669838351
138,zeya,53.75,127.2667,-23.26,92,32,4.21,RU,1669838352
139,san carlos de bariloche,-41.1456,-71.3082,62.35,22,0,20.71,AR,1669838287
140,bonney lake,47.1771,-122.1865,41.09,90,40,4.61,US,1669838343
141,maragogi,-9.0122,-35.2225,77.11,80,100,9.82,BR,1669838353
142,dikson,73.5069,80.5464,22.03,94,100,11.23,RU,1669838353
143,perth,-31.9333,115.8333,69.04,76,75,9.22,AU,1669838219
144,airai,-8.9266,125.4092,60.58,93,100,0.85,TL,1669838354
145,chuy,-33.6971,-53.4616,75.52,72,15,17.05,UY,1669838354
146,whitehorse,60.7161,-135.0538,-15.83,76,40,4.61,CA,1669838055
147,ribeira grande,38.5167,-28.7,63.0,67,75,5.75,PT,1669838355
148,nishihara,26.1842,127.7558,65.48,82,100,18.41,JP,1669838355
149,paoua,7.2427,16.4406,75.31,30,100,1.68,CF,1669838356
150,tongling,30.95,117.7833,29.88,86,100,4.94,CN,1669838356
151,tuatapere,-46.1333,167.6833,51.39,70,88,5.1,NZ,1669838357
152,zhigansk,66.7697,123.3711,-27.35,95,93,8.95,RU,1669838357
153,lima,-12.0432,-77.0282,73.65,60,0,14.97,PE,1669837886
154,ponta do sol,32.6667,-17.1,64.71,74,4,1.14,PT,1669838357
155,kaeo,-35.1,173.7833,61.32,87,41,10.09,NZ,1669838358
156,te anau,-45.4167,167.7167,45.91,86,86,2.55,NZ,1669838358
157,tiznit,29.5833,-9.5,59.18,61,87,2.24,MA,1669838359
158,saint-augustin,51.226,-58.6502,9.46,89,99,5.39,CA,1669838359
159,tasiilaq,65.6145,-37.6368,35.02,96,100,21.65,GL,1669838316
160,cabo san lucas,22.8909,-109.9124,83.5,56,94,4.99,MX,1669838155
161,nikolskoye,59.7035,30.7861,24.69,86,100,3.83,RU,1669838361
162,sao filipe,14.8961,-24.4956,76.23,65,68,8.32,CV,1669838363
163,nago,26.5881,127.9761,64.45,80,100,18.88,JP,1669838363
164,kirkwall,58.9848,-2.9587,46.96,81,100,18.41,GB,1669838363
165,dong hoi,17.4833,106.6,76.41,88,100,6.17,VN,1669838364
166,comodoro rivadavia,-45.8667,-67.5,64.26,42,0,16.11,AR,1669838364
167,ambilobe,-13.2,49.05,76.84,82,98,1.92,MG,1669838365
168,san juan,-31.5375,-68.5364,81.75,32,25,19.48,AR,1669838162
169,lebu,-37.6167,-73.65,56.37,64,0,20.87,CL,1669838365
170,sobolevo,54.4299,31.8996,19.81,87,100,7.81,RU,1669838365
171,yambio,4.5721,28.3955,68.56,93,100,4.36,SS,1669838366
172,hambantota,6.1241,81.1185,76.05,90,100,7.74,LK,1669838366
173,hienghene,-20.6833,164.9333,79.25,81,72,5.08,NC,1669838367
174,eenhana,-17.4667,16.3333,83.88,28,96,5.55,NA,1669838071
175,hilo,19.7297,-155.09,83.28,92,29,3.0,US,1669838367
176,sao jose da coroa grande,-8.8978,-35.1478,77.31,79,100,9.75,BR,1669838368
177,bambous virieux,-20.3428,57.7575,76.21,78,40,4.61,MU,1669838368
178,namibe,-15.1961,12.1522,70.0,74,75,8.81,AO,1669838345
179,souillac,-20.5167,57.5167,75.58,78,40,4.61,MU,1669838368
180,salihorsk,52.7876,27.5415,13.82,98,74,6.13,BY,1669838369
181,luderitz,-26.6481,15.1594,63.48,78,0,10.58,NA,1669838370
182,oktyabrskiy,54.4815,53.471,3.47,99,74,1.48,RU,1669838370
183,bereda,43.2686,-7.5406,47.41,100,96,2.53,ES,1669838370
184,kuruman,-27.4524,23.4325,75.99,29,99,8.3,ZA,1669838371
185,egvekinot,66.3167,-179.1667,9.88,84,15,5.64,RU,1669838371
186,binzhou,37.3667,118.0167,17.78,25,2,5.82,CN,1669838372
187,severo-kurilsk,50.6789,156.125,29.01,83,45,9.53,RU,1669838372
188,aseri,59.4506,26.8675,30.9,88,100,4.34,EE,1669838372
189,northam,51.0333,-4.2167,45.25,89,77,8.55,GB,1669838373
190,vardo,70.3705,31.1107,30.18,86,20,12.66,NO,1669838373
191,lanxi,29.2195,119.477,35.62,91,100,3.11,CN,1669838373
192,dhidhdhoo,6.8833,73.1,81.68,67,36,2.24,MV,1669838374
193,maldonado,-34.6667,-54.9167,85.39,40,19,14.45,UY,1669838167
194,sitka,57.0531,-135.33,22.78,43,0,8.08,US,1669838374
195,saint-paul,-21.0096,55.2707,75.31,79,90,3.38,RE,1669838264
196,fort nelson,58.8053,-122.7002,-22.41,69,0,5.75,CA,1669838375
197,havelock,34.8791,-76.9013,66.97,89,100,7.0,US,1669838375
198,paamiut,61.994,-49.6678,26.11,85,100,46.95,GL,1669838375
199,kawalu,-7.3817,108.2082,72.46,93,100,2.35,ID,1669838377
200,poum,-20.2333,164.0167,81.45,82,50,16.04,NC,1669838377
201,caucaia,-3.7361,-38.6531,86.31,71,40,13.8,BR,1669838266
202,nemuro,43.3236,145.575,30.24,58,2,22.73,JP,1669838378
203,merauke,-8.4667,140.3333,78.35,86,100,11.32,ID,1669838106
204,grindavik,63.8424,-22.4338,46.35,100,75,13.8,IS,1669838378
205,pevek,69.7008,170.3133,-1.23,94,100,5.3,RU,1669838379
206,ville-marie,47.3335,-79.433,33.8,71,100,11.72,CA,1669838140
207,puerto del rosario,28.5004,-13.8627,67.75,73,40,8.05,ES,1669838295
208,itoman,26.1247,127.6694,66.22,82,100,18.41,JP,1669838380
209,yar-sale,66.8333,70.8333,-9.81,100,34,4.21,RU,1669838380
210,thabazimbi,-24.5917,27.4116,73.81,42,0,1.88,ZA,1669838381
211,broome,42.2506,-75.833,50.85,92,100,23.02,US,1669838381
212,amapa,1.0,-52.0,75.97,91,100,2.1,BR,1669838381
213,pathein,16.7833,94.7333,76.42,90,81,4.47,MM,1669838382
214,craig,40.5153,-107.5464,33.42,71,100,2.13,US,1669838090
215,cambridge,43.3601,-80.3127,33.75,74,100,25.32,CA,1669838132
216,mar del plata,-38.0023,-57.5575,66.22,93,100,17.27,AR,1669838251
217,bauchi,10.5,10.0,69.67,25,78,6.29,NG,1669838383
218,alpena,45.0617,-83.4327,31.17,83,100,11.01,US,1669838383
219,baykit,61.67,96.37,0.21,97,100,5.82,RU,1669838384
220,kysyl-syr,63.8986,122.7617,-30.84,98,100,4.05,RU,1669838384
221,rock hill,34.9249,-81.0251,62.44,66,100,13.8,US,1669838239
222,esperance,-33.8667,121.9,64.83,66,28,14.85,AU,1669838385
223,renigunta,13.65,79.5167,72.39,92,47,2.59,IN,1669838385
224,ciortesti,46.9,27.8333,33.62,74,100,4.68,RO,1669838385
225,torbay,47.6666,-52.7314,25.57,78,20,9.22,CA,1669838318
226,erenhot,43.6475,111.9767,3.06,68,61,10.4,CN,1669838386
227,kayerkan,69.3497,87.7602,-3.33,99,100,3.31,RU,1669838386
228,manta,-0.95,-80.7333,76.78,69,100,10.36,EC,1669838386
229,rio bonito,-22.7086,-42.6097,76.03,86,91,9.84,BR,1669838387
230,port lincoln,-34.7333,135.8667,57.24,80,11,12.77,AU,1669838387
231,lasa,46.6166,10.7002,36.01,95,100,1.86,IT,1669838388
232,klaksvik,62.2266,-6.589,49.12,89,100,31.47,FO,1669838388
233,kuching,1.55,110.3333,79.02,95,20,1.14,MY,1669838389
234,kulhudhuffushi,6.6221,73.07,81.54,67,49,2.66,MV,1669838389
235,champerico,14.3,-91.9167,91.94,73,12,8.75,GT,1669838390
236,rio gallegos,-51.6226,-69.2181,66.25,22,75,33.38,AR,1669838390
237,mayo,38.8876,-76.5119,59.11,89,100,10.36,US,1669838390
238,ostrovnoy,68.0531,39.5131,19.85,94,82,7.81,RU,1669838391
239,bracebridge,45.0334,-79.3163,34.88,93,100,18.41,CA,1669838224
240,mwanza,-2.5167,32.9,71.65,88,75,0.0,TZ,1669838391
241,ballina,-28.8667,153.5667,60.01,99,100,18.25,AU,1669838392
242,ancud,-41.8697,-73.8203,55.89,54,11,7.31,CL,1669838392
243,dicabisagan,17.0818,122.4157,78.69,87,100,7.09,PH,1669838392
244,vila franca do campo,37.7167,-25.4333,62.2,84,84,3.62,PT,1669838393
245,bacolod,10.6667,122.95,77.88,84,96,10.69,PH,1669838393
246,sur,22.5667,59.5289,74.84,54,99,2.82,OM,1669838394
247,makakilo city,21.3469,-158.0858,80.62,70,100,6.26,US,1669838394
248,oranjemund,-28.55,16.4333,62.44,85,1,4.65,NA,1669838395
249,ahuimanu,21.4447,-157.8378,81.79,75,40,3.44,US,1669838396
250,korla,41.7597,86.1469,15.71,18,77,4.72,CN,1669838396
251,codajas,-3.8367,-62.0569,89.62,56,100,2.15,BR,1669838396
252,sironj,24.1,77.7,58.01,46,0,4.63,IN,1669838397
253,neuquen,-38.9516,-68.0591,78.69,11,0,9.22,AR,1669838397
254,srednekolymsk,67.45,153.6833,-12.91,98,100,4.74,RU,1669838397
255,olafsvik,64.8945,-23.7142,45.77,85,100,19.77,IS,1669838398
256,nantucket,41.2835,-70.0995,56.14,92,100,29.06,US,1669838257
257,vao,-22.6667,167.4833,77.4,85,97,6.89,NC,1669838227
258,pedernales,18.0384,-71.744,81.88,68,18,5.61,DO,1669838399
259,moron,-34.6534,-58.6198,78.01,62,75,9.13,AR,1669838399
260,adamovka,51.5223,59.9396,3.45,82,74,9.31,RU,1669838399
261,candido de abreu,-24.5669,-51.3333,75.09,84,77,0.4,BR,1669838400
262,mahajanga,-15.7167,46.3167,78.82,78,40,1.14,MG,1669838400
263,nouakchott,18.0858,-15.9785,73.33,57,3,14.2,MR,1669838400
264,road town,18.4167,-64.6167,82.44,74,20,8.05,VG,1669838401
265,havre-saint-pierre,50.2334,-63.5986,14.36,79,40,12.66,CA,1669838403
266,pangnirtung,66.1451,-65.7125,-20.45,87,15,4.47,CA,1669838404
267,guarapari,-20.6667,-40.4975,74.82,92,100,11.25,BR,1669838405
268,almaznyy,48.0448,40.045,26.08,43,71,17.98,RU,1669838406
269,nieves,15.3274,120.9485,75.79,84,98,3.24,PH,1669838406
270,asau,46.4333,26.4,33.28,93,100,3.36,RO,1669838407
271,murwara,23.85,80.4,57.54,62,12,2.51,IN,1669838408
272,asyut,27.181,31.1837,63.41,42,0,3.67,EG,1669838409
273,mersing,2.4312,103.8405,77.47,89,100,4.83,MY,1669838410
274,slave lake,55.2834,-114.769,-4.02,77,100,10.36,CA,1669838274
275,boyolangu,-8.1181,111.8935,74.82,86,98,5.41,ID,1669838411
276,sohag,26.557,31.6948,65.03,36,0,6.64,EG,1669838411
277,kiunga,-6.1219,141.2906,72.25,99,100,1.72,PG,1669838412
278,santiago,-33.4569,-70.6483,83.55,37,20,17.27,CL,1669837879
279,porto novo,6.4965,2.6036,79.97,79,45,6.31,BJ,1669838414
280,paris,48.8534,2.3488,45.37,90,75,11.5,FR,1669838149
281,saint george,37.1041,-113.5841,53.44,27,0,3.44,US,1669838416
282,dedovichi,57.5517,29.9502,11.59,97,41,3.98,RU,1669838417
283,mendi,-6.1761,143.6513,52.18,96,99,3.15,PG,1669838155
284,saint-leu,-21.15,55.2833,74.26,78,92,5.37,RE,1669838419
285,eydhafushi,5.1033,73.0708,80.94,67,83,3.6,MV,1669838419
286,aden,12.7794,45.0367,79.39,72,2,11.81,YE,1669838420
287,sars,56.5502,57.1366,1.89,100,91,0.65,RU,1669838420
288,alofi,-19.0595,-169.9187,78.03,82,96,8.75,NU,1669838421
289,barreiras,-12.1528,-44.99,75.52,84,100,1.59,BR,1669838422
290,buckeye,33.3703,-112.5838,72.7,34,0,9.22,US,1669838423
291,lata,40.1629,-8.3327,51.08,94,100,4.18,PT,1669838393
292,juneau,58.3019,-134.4197,20.21,100,0,8.32,US,1669838127
293,puerto el triunfo,13.2833,-88.55,80.87,67,92,6.55,SV,1669838424
294,kavieng,-2.5744,150.7967,81.45,74,38,2.62,PG,1669838425
295,thessalon,46.2501,-83.5666,32.29,58,88,25.26,CA,1669838425
296,xianyang,34.3378,108.7026,22.24,86,0,4.47,CN,1669838136
297,sestri levante,44.2732,9.3968,47.52,67,99,3.0,IT,1669838426
298,kajaani,64.2273,27.7285,26.65,93,100,2.3,FI,1669838427
299,nara,34.6851,135.8049,46.49,50,64,7.61,JP,1669838428
300,bonthe,7.5264,-12.505,79.47,79,21,5.97,SL,1669838271
301,rawson,-43.3002,-65.1023,67.55,46,48,21.36,AR,1669838323
302,walvis bay,-22.9575,14.5053,62.1,74,0,14.27,NA,1669838429
303,camargo,27.6667,-105.1667,74.61,14,5,7.02,MX,1669838430
304,barquisimeto,10.0739,-69.3228,77.77,71,58,7.92,VE,1669838431
305,kruisfontein,-34.0033,24.7314,65.88,81,2,6.78,ZA,1669838431
306,franca,-20.5386,-47.4008,65.53,88,70,0.85,BR,1669838141
307,loviisa,60.4566,26.2251,29.28,90,100,1.23,FI,1669838432
308,samarai,-10.6167,150.6667,81.5,78,100,6.91,PG,1669838433
309,nome,64.5011,-165.4064,24.87,86,100,14.97,US,1669838433
310,cangzhou,38.3167,116.8667,18.0,24,0,6.44,CN,1669838434
311,jacareacanga,-6.2222,-57.7528,87.15,60,100,2.82,BR,1669838435
312,pangody,65.85,74.4859,-13.2,98,11,4.43,RU,1669838435
313,sabang,5.8933,95.3214,80.51,73,99,1.63,ID,1669838436
314,ambovombe,-25.1667,46.0833,70.39,91,100,14.03,MG,1669838437
315,owando,-0.4819,15.8999,68.47,99,100,1.86,CG,1669838438
316,quatre cocos,-20.2078,57.7625,76.08,77,36,9.73,MU,1669838438
317,guerrero negro,27.9769,-114.0611,65.89,58,5,11.79,MX,1669838439
318,kyzyl-suu,42.3414,78.0056,29.95,55,15,10.09,KG,1669838439
319,ahipara,-35.1667,173.1667,61.25,68,99,15.93,NZ,1669838440
320,hithadhoo,-0.6,73.0833,80.98,74,66,6.89,MV,1669838440
321,wladyslawowo,54.7909,18.4009,34.93,73,100,10.56,PL,1669838441
322,college,64.8569,-147.8028,2.21,78,100,2.04,US,1669838442
323,trairi,-3.2778,-39.2689,81.72,66,99,11.72,BR,1669838386
324,kalabo,-14.97,22.6814,73.56,60,20,4.09,ZM,1669838442
325,tornio,65.8481,24.1466,28.42,99,100,3.69,FI,1669838443
326,banepa,27.6298,85.5214,48.52,93,20,2.3,NP,1669838443
327,faya,18.3851,42.4509,57.49,77,79,3.09,SA,1669838444
328,ngunguru,-35.6167,174.5,61.57,67,67,14.36,NZ,1669838444
329,jinka,5.65,36.65,72.64,36,100,1.97,ET,1669838445
330,deputatskiy,69.3,139.9,-14.94,99,100,3.04,RU,1669838445
331,zheleznodorozhnyy,55.7503,38.0042,10.92,96,74,3.44,RU,1669838446
332,inhambane,-23.865,35.3833,71.83,85,16,9.31,MZ,1669838447
333,xuddur,4.1213,43.8894,78.58,45,58,11.03,SO,1669838447
334,gondanglegi,-7.7479,112.0132,74.03,88,99,11.43,ID,1669838448
335,isiro,2.7739,27.616,66.16,99,98,2.62,CD,1669838270
336,pervomayskiy,53.2485,40.2871,22.93,62,13,5.59,RU,1669838448
337,kismayo,-0.3582,42.5454,79.12,82,60,14.07,SO,1669838450
338,san javier,37.8063,-0.8374,58.12,73,0,4.61,ES,1669838450
339,rockport,28.0206,-97.0544,66.24,48,0,17.27,US,1669838451
340,sulangan,11.1373,123.7228,81.43,79,100,16.67,PH,1669838451
341,san andres,12.5847,-81.7006,81.99,76,16,19.08,CO,1669838452
342,belmonte,-15.8631,-38.8828,78.96,88,100,8.66,BR,1669838453
343,nueva helvecia,-34.3,-57.2333,88.59,57,100,10.67,UY,1669838453
344,vila velha,-20.3297,-40.2925,75.92,92,99,11.25,BR,1669838454
345,bloemfontein,-29.1211,26.214,74.19,33,84,4.59,ZA,1669838454
346,severomuysk,56.1481,113.4267,-24.57,96,100,5.17,RU,1669838455
347,saint-philippe,-21.3585,55.7679,74.79,78,37,9.6,RE,1669838456
348,svetlogorsk,52.6333,29.7333,18.45,95,80,6.04,BY,1669838457
349,inuvik,68.3499,-133.7218,-0.54,90,100,5.01,CA,1669838457
350,la ronge,55.1001,-105.2842,-4.09,77,100,3.96,CA,1669838433
351,bantou,26.2151,117.4893,47.95,94,100,4.12,CN,1669838458
352,ambon,-3.6954,128.1814,78.24,15,40,3.44,ID,1669838458
353,kroya,-7.6331,109.2461,77.49,82,100,0.92,ID,1669838459
354,zhaotong,27.3167,103.7167,30.65,91,100,7.14,CN,1669838459
355,ust-kuyga,70.0167,135.6,-10.53,97,100,8.84,RU,1669838460
356,puerto baquerizo moreno,-0.9,-89.6,70.32,76,46,13.35,EC,1669838460
357,rabo de peixe,37.8,-25.5833,61.29,97,75,4.61,PT,1669838460
358,flinders,-34.5833,150.8552,62.19,82,100,4.0,AU,1669838461
359,padang,-0.9492,100.3543,75.4,95,100,2.8,ID,1669838461
360,pietarsaari,63.65,22.6833,29.89,96,94,5.3,FI,1669838462
361,chaman,30.9236,66.4512,52.16,38,58,1.05,PK,1669838462
362,mahibadhoo,3.7833,72.9667,80.55,69,39,4.52,MV,1669838464
363,piet retief,-27.0071,30.8132,54.57,70,0,1.72,ZA,1669838464
364,mozarlandia,-14.7447,-50.5706,81.68,70,51,9.75,BR,1669838466
365,waw,7.7029,27.9953,84.45,34,100,4.14,SS,1669838467
366,luga,58.7372,29.8453,19.85,96,56,3.4,RU,1669838467
367,san patricio,28.017,-97.5169,66.07,43,5,18.72,US,1669838468
368,tabou,4.423,-7.3528,79.25,80,70,4.72,CI,1669838468
369,labuhan,-6.8844,112.2051,76.64,86,100,10.38,ID,1669838469
370,yanaul,56.2719,54.9309,0.23,100,85,1.59,RU,1669838470
371,nanortalik,60.1432,-45.2371,29.98,83,100,18.66,GL,1669838470
372,raga,8.4596,25.678,81.57,35,99,2.13,SS,1669838470
373,dengzhou,37.8086,120.7508,33.57,46,100,18.79,CN,1669838471
374,maxixe,-23.8597,35.3472,70.9,86,15,8.05,MZ,1669838471
375,gisborne,-38.6533,178.0042,59.32,68,95,13.67,NZ,1669838472
376,tual,-5.6667,132.75,82.02,78,100,23.94,ID,1669838472
377,penzance,50.1186,-5.5371,47.08,78,22,8.5,GB,1669838473
378,vicuna,-30.0319,-70.7081,76.77,46,1,11.21,CL,1669838473
379,alamosa,37.4695,-105.87,28.38,34,0,0.0,US,1669838474
380,fortuna,40.5982,-124.1573,55.65,66,75,20.71,US,1669838271
381,rudbar,30.15,62.6,58.78,39,100,4.34,AF,1669838476
382,brae,60.3964,-1.353,48.16,83,99,20.56,GB,1669838476
383,dubti,11.7361,41.0853,77.11,48,1,12.57,ET,1669838477
384,hailey,43.5196,-114.3153,24.8,80,100,6.91,US,1669838478
385,nioro,13.35,-15.75,81.68,23,43,6.42,GM,1669838478
386,kieta,-6.2167,155.6333,79.07,85,99,5.23,PG,1669838479
387,ilulissat,69.2167,-51.1,16.34,90,100,17.18,GL,1669838232
388,sioux lookout,50.1001,-91.917,16.52,85,100,17.49,CA,1669838480
389,eureka,40.8021,-124.1637,55.92,63,100,13.0,US,1669838199
390,faanui,-16.4833,-151.75,79.92,77,17,13.42,PF,1669838480
391,saint-pierre,-21.3393,55.4781,74.88,69,91,5.75,RE,1669838481
392,keuruu,62.2667,24.7,28.58,98,95,1.39,FI,1669838482
393,boa vista,2.8197,-60.6733,89.58,48,20,12.66,BR,1669838460
394,imeni babushkina,59.7573,43.1285,8.64,97,21,2.26,RU,1669838483
395,ugoofaaru,5.6667,73.0,81.12,67,29,2.89,MV,1669838484
396,biltine,14.5333,20.9167,77.4,19,9,7.45,TD,1669838484
397,sandpoint,48.2766,-116.5533,26.85,90,100,6.91,US,1669838282
398,ouesso,1.6136,16.0517,69.57,98,100,1.5,CG,1669838485
399,havoysund,70.9963,24.6622,35.83,81,86,7.11,NO,1669838485
400,muisne,0.6,-80.0333,77.5,76,64,10.78,EC,1669838486
401,hami,42.8,93.45,10.89,23,75,0.81,CN,1669838486
402,hofn,64.2539,-15.2082,47.93,99,100,22.73,IS,1669838487
403,dodola,6.9833,39.1833,49.53,65,31,1.97,ET,1669838487
404,konstantinovka,49.6167,127.9833,-17.55,89,13,7.05,RU,1669838488
405,talitsa,56.8804,60.0213,10.94,99,92,1.16,RU,1669838488
406,maasmechelen,50.9654,5.6945,44.51,91,100,8.99,BE,1669838488
407,blyth,55.1271,-1.5086,39.47,97,100,3.44,GB,1669838489
408,kidal,18.4411,1.4078,76.57,17,70,7.09,ML,1669838420
409,pskov,57.8136,28.3496,24.71,93,75,2.24,RU,1669838489
410,capaci,38.1711,13.2393,56.8,81,20,12.66,IT,1669838490
411,dunedin,-45.8742,170.5036,54.81,65,8,7.0,NZ,1669838491
412,igarka,67.4667,86.5833,4.44,94,100,14.12,RU,1669838491
413,sokoni,-6.4333,39.55,79.92,81,62,10.42,TZ,1669838491
414,wanning,18.8003,110.3967,75.16,92,92,10.89,CN,1669838492
415,gorontalo,0.5412,123.0595,75.85,92,100,3.38,ID,1669838492
416,la asuncion,11.0333,-63.8628,80.01,73,4,13.18,VE,1669838493
417,mehamn,71.0357,27.8492,33.75,93,75,6.91,NO,1669838493
418,groton,41.3501,-72.0784,57.09,91,100,18.99,US,1669838493
419,katobu,-4.9408,122.5276,74.77,93,100,2.35,ID,1669838494
420,nalut,30.3333,10.85,52.81,46,0,7.61,LY,1669838494
421,cortez,37.3489,-108.5859,46.71,30,9,11.43,US,1669838495
422,hobyo,5.3505,48.5268,79.75,75,10,12.84,SO,1669838495
423,gimli,50.6336,-96.9907,8.74,87,99,16.53,CA,1669838495
424,miraflores,19.2167,-98.8083,75.87,36,37,5.08,MX,1669838496
425,pemangkat,1.1667,108.9667,77.68,86,100,2.68,ID,1669838496
426,nohar,29.1833,74.7667,62.26,27,0,5.3,IN,1669838497
427,baracoa,20.3467,-74.4958,80.74,77,53,11.52,CU,1669838498
428,byron bay,-28.65,153.6167,59.94,89,100,18.66,AU,1669838498
429,nanga eboko,4.6833,12.3667,73.33,74,47,2.08,CM,1669838498
430,pelym,61.0108,61.9978,6.66,95,100,3.13,RU,1669838499
431,tazovskiy,67.4667,78.7,-5.84,100,99,7.07,RU,1669838499
432,kishi,9.0833,3.85,78.19,28,78,2.98,NG,1669838500
433,curup,-3.4667,102.5333,64.81,96,100,1.14,ID,1669838500
434,tura,25.5198,90.2201,61.63,87,2,3.49,IN,1669838482
435,necochea,-38.5473,-58.7368,60.57,74,100,15.32,AR,1669838500
436,luau,-10.7073,22.2247,63.28,97,77,3.15,AO,1669838501
437,oussouye,12.485,-16.5469,76.32,48,13,6.4,SN,1669838501
438,fairbanks,64.8378,-147.7164,2.23,78,100,2.13,US,1669838400
439,san jose,37.3394,-121.895,59.9,54,40,4.61,US,1669838314
440,la libertad,-2.2333,-80.9,73.89,74,40,13.06,EC,1669838502
441,adana,36.985,35.2881,66.22,63,75,3.44,TR,1669838503
442,half moon bay,37.4636,-122.4286,59.14,61,0,6.91,US,1669838503
443,dubbo,-32.25,148.6167,59.13,77,75,8.05,AU,1669838504
444,richards bay,-28.783,32.0377,67.86,87,7,7.76,ZA,1669838504
445,nizhniy ufaley,55.9153,59.9842,6.06,99,95,1.39,RU,1669838505
446,chapais,49.7834,-74.8492,24.58,97,100,15.19,CA,1669838505
447,ola,59.5833,151.2833,26.15,85,100,19.08,RU,1669838505
448,las vegas,36.175,-115.1372,56.61,25,57,5.01,US,1669838207
449,gombong,-7.6072,109.5142,76.55,85,100,0.38,ID,1669838506
450,lovozero,68.005,35.0117,20.14,89,100,4.12,RU,1669838507
451,pacific grove,36.6177,-121.9166,58.42,72,18,5.01,US,1669838507
452,san rafael del sur,11.8485,-86.4384,75.92,84,100,9.71,NI,1669838508
453,mbinga,-10.9333,35.0167,62.65,91,100,2.33,TZ,1669838509
454,kahului,20.8947,-156.47,82.98,83,53,8.01,US,1669838286
455,barma,8.35,-11.3333,74.61,89,70,2.37,SL,1669838509
456,barrancabermeja,7.0653,-73.8547,85.78,61,84,2.73,CO,1669838510
457,ahtopol,42.1,27.95,51.93,85,100,17.0,BG,1669838510
458,donskoye,45.4552,41.9741,33.93,77,13,24.4,RU,1669838510
459,kifri,34.6959,44.9661,63.82,65,97,5.5,IQ,1669838511
460,whakatane,-37.9585,176.9854,63.88,76,10,3.0,NZ,1669838317
461,boras,57.721,12.9401,37.83,91,100,5.12,SE,1669838511
462,clyde river,70.4692,-68.5914,-26.72,91,12,4.09,CA,1669838491
463,sauda,59.6506,6.3542,42.67,80,20,5.14,NO,1669838512
464,magistralnyy,56.1725,107.4458,0.7,94,100,6.8,RU,1669838512
465,daoukro,7.0591,-3.9631,77.68,76,84,2.62,CI,1669838513
466,adrar,20.5022,-10.0711,70.02,15,8,9.51,MR,1669838513
467,rawlins,41.7911,-107.2387,30.34,43,20,25.32,US,1669838514
468,olinala,17.8333,-98.85,81.68,40,64,3.58,MX,1669838514
469,nieuw nickerie,5.95,-56.9833,80.24,75,23,8.93,SR,1669838514
470,atambua,-9.1061,124.8925,73.26,90,100,0.38,ID,1669838515
471,narsaq,60.9167,-46.05,28.62,89,100,1.25,GL,1669838515
472,wellington,-41.2866,174.7756,57.06,80,100,17.27,NZ,1669838511
473,dolores,-36.3132,-57.6792,66.22,93,100,16.64,AR,1669838403
474,coihaique,-45.5752,-72.0662,59.59,43,2,10.02,CL,1669838489
475,maine-soroa,13.2114,12.0241,70.79,21,42,8.7,NE,1669838516
476,cedar city,37.6775,-113.0619,45.39,33,6,8.3,US,1669838283
477,mnogovershinnyy,53.9353,139.9242,-4.5,90,100,18.66,RU,1669838517
478,bonavista,48.6499,-53.1147,27.63,77,74,10.11,CA,1669838517
479,beloha,-25.1667,45.05,70.14,91,100,9.8,MG,1669838518
480,abu kamal,34.4506,40.9171,61.32,67,71,5.14,SY,1669838518
481,bundaberg,-24.85,152.35,64.22,99,100,5.01,AU,1669838017
482,dali,25.7,100.1833,48.07,90,0,4.25,CN,1669838519
483,puyang,29.4603,119.8861,34.11,96,100,3.89,CN,1669838519
484,eyl,7.9803,49.8164,77.76,80,9,13.58,SO,1669838520
485,aurora,39.7294,-104.8319,46.63,52,20,4.61,US,1669838276
486,loa janan,-0.583,117.095,72.86,98,91,1.16,ID,1669838520
487,udachnyy,66.4167,112.4,-29.04,97,100,8.34,RU,1669838521
488,banda aceh,5.5577,95.3222,77.83,80,100,2.48,ID,1669838521
489,camiri,-20.05,-63.5167,92.25,27,91,7.99,BO,1669838521
490,smidovich,48.6,133.8167,-5.17,78,64,19.28,RU,1669838522
491,price,39.5994,-110.8107,35.11,35,39,5.08,US,1669838419
492,salalah,17.0151,54.0924,75.72,75,12,1.21,OM,1669838238
493,sotnikovo,51.8845,107.4791,3.29,78,100,2.24,RU,1669838523
494,sisimiut,66.9395,-53.6735,17.26,87,100,27.87,GL,1669838523
495,reporoa,-38.4333,176.35,60.44,63,22,6.62,NZ,1669838445
496,arman,59.7,150.1667,26.02,87,100,15.79,RU,1669838524
497,ereymentau,51.6199,73.1033,0.88,80,100,17.52,KZ,1669838524
498,fuerte olimpo,-21.0415,-57.8738,101.97,18,75,8.75,PY,1669838524
499,pangai,-19.8,-174.35,79.23,81,96,11.92,TO,1669838525
500,svelgen,61.7685,5.2955,41.99,76,29,5.57,NO,1669838525
501,golden,39.7555,-105.2211,49.1,53,7,5.01,US,1669838334
502,meulaboh,4.1363,96.1285,75.61,89,100,3.09,ID,1669838526
503,maniitsoq,65.4167,-52.9,21.9,78,100,35.77,GL,1669838526
504,high level,58.5169,-117.136,-8.66,76,18,2.17,CA,1669838403
505,westport,41.1415,-73.3579,58.3,86,100,27.63,US,1669838528
506,port hawkesbury,45.6169,-61.3485,36.59,78,67,10.0,CA,1669838528
507,nicoya,10.1483,-85.452,79.39,78,100,8.59,CR,1669838529
508,omboue,-1.5746,9.2618,77.2,88,100,6.29,GA,1669838529
509,vire,48.9167,-0.8333,34.99,95,5,5.17,FR,1669838530
510,ayr,55.4627,-4.6339,42.51,93,75,6.91,GB,1669838530
511,tautira,-17.7333,-149.15,78.31,81,36,12.41,PF,1669838531
512,jalu,29.0331,21.5482,60.75,45,0,8.03,LY,1669838531
513,dukat,62.55,155.55,1.69,98,100,5.35,RU,1669838531
514,beibei,29.8256,106.4339,47.37,88,100,2.48,CN,1669838532
515,batagay-alyta,67.8006,130.4114,-13.81,97,100,6.73,RU,1669838532
516,lavrentiya,65.5833,-171.0,24.12,90,48,8.63,RU,1669838533
517,acapulco,16.8634,-99.8901,83.48,65,33,6.85,MX,1669838529
518,armidale,-30.5167,151.65,48.92,82,100,7.23,AU,1669838533
519,derzhavinsk,51.1,66.3167,10.99,85,100,12.77,KZ,1669838534
520,portland,45.5234,-122.6762,47.8,91,100,4.61,US,1669838280
521,ghanzi,-21.5667,21.7833,79.07,27,0,7.72,BW,1669838534
522,tailai,46.3833,123.4,-7.49,81,34,7.27,CN,1669838535
523,palmares do sul,-30.2578,-50.5097,74.28,80,99,17.13,BR,1669838486
524,mancio lima,-7.6142,-72.8958,98.06,29,100,3.71,BR,1669838536
525,grand-lahou,5.1367,-5.0242,79.16,82,88,5.77,CI,1669838537
526,togur,58.3631,82.8265,-23.24,100,11,1.07,RU,1669838537
527,siguiri,11.6667,-9.5,81.39,23,62,0.47,GN,1669838257
528,pianco,-7.1981,-37.9292,83.25,54,92,6.22,BR,1669838538
529,bainbridge,47.6262,-122.5212,43.02,88,100,5.01,US,1669838429
530,linxia,35.6003,103.2064,17.91,37,62,2.82,CN,1669838539
531,san quintin,30.4833,-115.95,61.07,63,12,10.49,MX,1669838427
532,kabanjahe,3.1001,98.4908,62.96,96,100,2.62,ID,1669838540
533,santa rosalia,27.3167,-112.2833,68.22,55,2,6.62,MX,1669838540
534,tommot,58.9564,126.2925,-11.85,91,100,10.02,RU,1669838541
535,hamada,34.8833,132.0833,43.74,64,100,12.88,JP,1669838289
536,impfondo,1.6381,18.0667,68.59,99,100,2.55,CG,1669838542
537,aksarka,66.5606,67.7975,-8.32,99,7,3.15,RU,1669838542
538,presidente dutra,-5.29,-44.49,82.51,72,54,3.11,BR,1669838542
539,dawei,14.0833,98.2,74.52,92,94,3.36,MM,1669838543
540,nizwa,22.9333,57.5333,69.93,42,100,0.58,OM,1669838544
541,espoo,60.25,24.6667,34.07,92,75,4.61,FI,1669838544
542,yarmouth,41.7057,-70.2286,58.64,91,100,13.0,US,1669838545
543,mataram,-8.5833,116.1167,76.01,84,92,6.93,ID,1669838545
544,nautla,20.2167,-96.7833,78.69,84,93,12.73,MX,1669838545
545,tahlequah,35.9154,-94.97,46.62,21,0,6.91,US,1669838546
546,butte,39.6499,-121.5677,55.02,55,99,8.66,US,1669838546
547,klenovyy,48.1193,39.4588,26.02,42,67,17.74,UA,1669838547
548,khanpur,28.6453,70.6567,62.96,21,1,3.62,PK,1669838547
549,naqadeh,36.9553,45.388,43.95,91,100,2.21,IR,1669838548
550,ginir,7.1333,40.7,55.8,38,49,7.61,ET,1669838549
551,ygatimi,-24.0833,-55.5,83.25,57,64,4.34,PY,1669838550
552,ariquemes,-9.9133,-63.0408,87.49,53,97,5.64,BR,1669838436
553,kisangani,0.5167,25.2,68.58,98,84,1.86,CD,1669838550
554,sidney,-33.8679,151.2073,64.36,74,75,9.22,AU,1669838443
555,quang ngai,15.1167,108.8,74.07,92,52,2.91,VN,1669838551
556,aracuai,-16.8497,-42.0703,80.56,83,68,3.47,BR,1669838552
557,kemise,10.7167,39.8667,61.5,48,6,2.26,ET,1669838553
558,shingu,33.7333,135.9833,46.0,73,92,6.98,JP,1669838553
559,sabancuy,18.9667,-91.1833,87.24,56,13,6.29,MX,1669838553
560,chibuto,-24.6867,33.5306,66.85,84,0,4.88,MZ,1669838554
561,acari,-15.4311,-74.6158,78.55,54,0,11.43,PE,1669838283
